{
	"place":{"id":"4cc577f9be40a35d476a844c","name":"Haco cafe 匣","contact":{"phone":"+81354285035","formattedPhone":"+81 3-5428-5035"},"location":{"address":"代官山町19-1","crossStreet":"白磁館 2A","lat":35.64783664438644,"lng":139.70306430307193,"labeledLatLngs":[{"label":"display","lat":35.64783664438644,"lng":139.70306430307193}],"distance":130,"postalCode":"150-0034","cc":"JP","city":"Shibuya","state":"Tokyo","country":"Japan","formattedAddress":["代官山町19-1 (白磁館 2A)","Shibuya, Tokyo","150-0034","Japan"]},"categories":[{"id":"4bf58dd8d48988d16d941735","name":"Café","pluralName":"Cafés","shortName":"Café","icon":{"prefix":"https://ss3.4sqi.net/img/categories_v2/food/cafe_","suffix":".png"},"primary":true}],"verified":false,"stats":{"checkinsCount":261,"usersCount":216,"tipCount":2},"url":"http://ameblo.jp/haco--cafe/","allowMenuUrlEdit":true,"beenHere":{"lastCheckinExpiredAt":0},"specials":{"count":0,"items":[]},"referralId":"v-1512736189","venueChains":[],"hasPerk":false},
	"placeList":[{"id":"518c8b1a498e526a4553512a","name":"肉割烹バル shou‐taian","contact":{"phone":"+81334640803","formattedPhone":"+81 3-3464-0803"},"location":{"address":"桜丘町24-8","crossStreet":"新南平台マンション 1F","lat":35.65587644922087,"lng":139.70054480755852,"labeledLatLngs":[{"label":"display","lat":35.65587644922087,"lng":139.70054480755852}],"distance":803,"postalCode":"150-0031","cc":"JP","city":"Tokyo","state":"Tokyo","country":"Japan","formattedAddress":["桜丘町24-8 (新南平台マンション 1F)","Shibuya, Tokyo","150-0031","Japan"]},"categories":[{"id":"4bf58dd8d48988d111941735","name":"Japanese Restaurant","pluralName":"Japanese Restaurants","shortName":"Japanese","icon":{"prefix":"https://ss3.4sqi.net/img/categories_v2/food/japanese_","suffix":".png"},"primary":true}],"verified":false,"stats":{"checkinsCount":411,"usersCount":280,"tipCount":4},"allowMenuUrlEdit":true,"beenHere":{"lastCheckinExpiredAt":0},"specials":{"count":0,"items":[]},"referralId":"v-1512736578","venueChains":[],"hasPerk":false},{"id":"544a62da498eeb86b797e661","name":"Salt (肉バル ソルト 中目黒)","contact":{"phone":"+81363030829","formattedPhone":"+81 3-6303-0829"},"location":{"address":"上目黒2-18-13","crossStreet":"ヒルズ中目黒 1F","lat":35.641899926146195,"lng":139.69721669421443,"labeledLatLngs":[{"label":"display","lat":35.641899926146195,"lng":139.69721669421443}],"distance":891,"postalCode":"153-0051","cc":"JP","city":"Tokyo","state":"Tokyo","country":"Japan","formattedAddress":["上目黒2-18-13 (ヒルズ中目黒 1F)","Meguro, Tokyo","153-0051","Japan"]},"categories":[{"id":"52e81612bcbc57f1066b79f1","name":"Bistro","pluralName":"Bistros","shortName":"Bistro","icon":{"prefix":"https://ss3.4sqi.net/img/categories_v2/food/default_","suffix":".png"},"primary":true}],"verified":false,"stats":{"checkinsCount":390,"usersCount":241,"tipCount":0},"allowMenuUrlEdit":true,"beenHere":{"lastCheckinExpiredAt":0},"specials":{"count":0,"items":[]},"referralId":"v-1512736578","venueChains":[],"hasPerk":false},{"id":"4bf667659abec9b6b9b125e8","name":"肉寿司 恵比寿横丁店","contact":{"phone":"+81334447005","formattedPhone":"+81 3-3444-7005","facebook":"1561079247481753","facebookUsername":"nikusushiebisu","facebookName":"恵比寿横丁　肉寿司"},"location":{"address":"恵比寿1-7-4","crossStreet":"恵比寿横丁","lat":35.6481111,"lng":139.7106944,"labeledLatLngs":[{"label":"display","lat":35.6481111,"lng":139.7106944}],"distance":768,"postalCode":"150-0013","cc":"JP","city":"Tokyo","state":"Tokyo","country":"Japan","formattedAddress":["恵比寿1-7-4 (恵比寿横丁)","Shibuya, Tokyo","150-0013","Japan"]},"categories":[{"id":"4bf58dd8d48988d1d2941735","name":"Sushi Restaurant","pluralName":"Sushi Restaurants","shortName":"Sushi","icon":{"prefix":"https://ss3.4sqi.net/img/categories_v2/food/sushi_","suffix":".png"},"primary":true}],"verified":false,"stats":{"checkinsCount":849,"usersCount":711,"tipCount":9},"url":"http://www.shibuyayokocho.com/shop/?s=19","allowMenuUrlEdit":true,"beenHere":{"lastCheckinExpiredAt":0},"specials":{"count":0,"items":[]},"referralId":"v-1512736578","venueChains":[],"hasPerk":false},{"id":"570ba31f498e59c7227a3370","name":"肉寿司 桜丘店","contact":{"phone":"+815058726111","formattedPhone":"+81 50-5872-6111","facebook":"558330644348565","facebookUsername":"nikuzushi.shibuya","facebookName":"渋谷 桜丘 肉寿司"},"location":{"address":"桜丘町16-10","lat":35.656655,"lng":139.700958,"labeledLatLngs":[{"label":"display","lat":35.656655,"lng":139.700958}],"distance":882,"postalCode":"150-0031","cc":"JP","city":"Tokyo","state":"Tokyo","country":"Japan","formattedAddress":["桜丘町16-10","Shibuya, Tokyo","150-0031","Japan"]},"categories":[{"id":"4bf58dd8d48988d1d2941735","name":"Sushi Restaurant","pluralName":"Sushi Restaurants","shortName":"Sushi","icon":{"prefix":"https://ss3.4sqi.net/img/categories_v2/food/sushi_","suffix":".png"},"primary":true}],"verified":false,"stats":{"checkinsCount":86,"usersCount":77,"tipCount":0},"allowMenuUrlEdit":true,"beenHere":{"lastCheckinExpiredAt":0},"specials":{"count":0,"items":[]},"referralId":"v-1512736578","venueChains":[],"hasPerk":false},{"id":"52c8e251498ec082547820a1","name":"肉食堂 智 中目黒店","contact":{"phone":"+81357243089","formattedPhone":"+81 3-5724-3089"},"location":{"address":"上目黒1-23-1","crossStreet":"中目黒アリーナ","lat":35.6444724620214,"lng":139.69931665643014,"labeledLatLngs":[{"label":"display","lat":35.6444724620214,"lng":139.69931665643014}],"distance":548,"postalCode":"153-0051","cc":"JP","city":"Tokyo","state":"Tokyo","country":"Japan","formattedAddress":["上目黒1-23-1 (中目黒アリーナ)","Meguro, Tokyo","153-0051","Japan"]},"categories":[{"id":"4bf58dd8d48988d1cc941735","name":"Steakhouse","pluralName":"Steakhouses","shortName":"Steakhouse","icon":{"prefix":"https://ss3.4sqi.net/img/categories_v2/food/steakhouse_","suffix":".png"},"primary":true}],"verified":false,"stats":{"checkinsCount":54,"usersCount":49,"tipCount":1},"url":"http://www.29shokudo-tomo.com","allowMenuUrlEdit":true,"beenHere":{"lastCheckinExpiredAt":0},"specials":{"count":0,"items":[]},"referralId":"v-1512736578","venueChains":[],"hasPerk":false},{"id":"5a153b57fd16bb647fdd712e","name":"肉天国(にくてんのくに)","contact":{},"location":{"lat":35.648906,"lng":139.707914,"labeledLatLngs":[{"label":"display","lat":35.648906,"lng":139.707914}],"distance":513,"postalCode":"150-0021","cc":"JP","city":"Shibuya","state":"Tokyo","country":"Japan","formattedAddress":["Shibuya, Tokyo","150-0021","Japan"]},"categories":[{"id":"4bf58dd8d48988d11c941735","name":"Sake Bar","pluralName":"Sake Bars","shortName":"Sake Bar","icon":{"prefix":"https://ss3.4sqi.net/img/categories_v2/nightlife/sake_","suffix":".png"},"primary":true}],"verified":false,"stats":{"checkinsCount":2,"usersCount":2,"tipCount":0},"allowMenuUrlEdit":true,"beenHere":{"lastCheckinExpiredAt":0},"specials":{"count":0,"items":[]},"referralId":"v-1512736578","venueChains":[],"hasPerk":false},{"id":"57aeed94498eeb5b2d15a400","name":"肉バル ソルト 恵比寿","contact":{"phone":"+81364510176","formattedPhone":"+81 3-6451-0176"},"location":{"address":"恵比寿南1-3-2","crossStreet":"エルスタンザ恵比寿 B1F","lat":35.64556615893511,"lng":139.70809757709503,"labeledLatLngs":[{"label":"display","lat":35.64556615893511,"lng":139.70809757709503}],"distance":640,"cc":"JP","city":"Tokyo","state":"Tokyo","country":"Japan","formattedAddress":["恵比寿南1-3-2 (エルスタンザ恵比寿 B1F)","Shibuya, Tokyo","Japan"]},"categories":[{"id":"4bf58dd8d48988d1cc941735","name":"Steakhouse","pluralName":"Steakhouses","shortName":"Steakhouse","icon":{"prefix":"https://ss3.4sqi.net/img/categories_v2/food/steakhouse_","suffix":".png"},"primary":true}],"verified":false,"stats":{"checkinsCount":102,"usersCount":79,"tipCount":1},"allowMenuUrlEdit":true,"beenHere":{"lastCheckinExpiredAt":0},"specials":{"count":0,"items":[]},"referralId":"v-1512736578","venueChains":[],"hasPerk":false},{"id":"58cd432118fd2b1c6aa3a09d","name":"肉寿司 間借り","contact":{},"location":{"address":"恵比寿西1-7-10","crossStreet":"大須賀ビル 2F","lat":35.64767975106129,"lng":139.70862155969292,"labeledLatLngs":[{"label":"display","lat":35.64767975106129,"lng":139.70862155969292}],"distance":590,"cc":"JP","city":"Shibuya","state":"Tokyo","country":"Japan","formattedAddress":["恵比寿西1-7-10 (大須賀ビル 2F)","Shibuya, Tokyo","Japan"]},"categories":[{"id":"4bf58dd8d48988d11c941735","name":"Sake Bar","pluralName":"Sake Bars","shortName":"Sake Bar","icon":{"prefix":"https://ss3.4sqi.net/img/categories_v2/nightlife/sake_","suffix":".png"},"primary":true}],"verified":false,"stats":{"checkinsCount":21,"usersCount":21,"tipCount":0},"allowMenuUrlEdit":true,"beenHere":{"lastCheckinExpiredAt":0},"specials":{"count":0,"items":[]},"referralId":"v-1512736578","venueChains":[],"hasPerk":false},{"id":"58e778053f5a5c0905c49bc6","name":"肉料理 くろうし","contact":{},"location":{"lat":35.645456,"lng":139.697569,"labeledLatLngs":[{"label":"display","lat":35.645456,"lng":139.697569}],"distance":562,"postalCode":"153-0051","cc":"JP","city":"Tokyo","state":"Tokyo","country":"Japan","formattedAddress":["Meguro, Tokyo","153-0051","Japan"]},"categories":[{"id":"4bf58dd8d48988d1df931735","name":"BBQ Joint","pluralName":"BBQ Joints","shortName":"BBQ","icon":{"prefix":"https://ss3.4sqi.net/img/categories_v2/food/bbqalt_","suffix":".png"},"primary":true}],"verified":false,"stats":{"checkinsCount":12,"usersCount":12,"tipCount":0},"allowMenuUrlEdit":true,"beenHere":{"lastCheckinExpiredAt":0},"specials":{"count":0,"items":[]},"referralId":"v-1512736578","venueChains":[],"hasPerk":false},{"id":"55bdd7dd498e1d6c946e3b78","name":"炊き肉 牛ちゃん","contact":{},"location":{"address":"恵比寿西1-10-11","crossStreet":"フジワラビルアネックス1階","lat":35.64673271740178,"lng":139.7079383525043,"labeledLatLngs":[{"label":"display","lat":35.64673271740178,"lng":139.7079383525043}],"distance":564,"postalCode":"150-0021","cc":"JP","city":"Shibuya","state":"Tokyo","country":"Japan","formattedAddress":["恵比寿西1-10-11 (フジワラビルアネックス1階)","Shibuya, Tokyo","150-0021","Japan"]},"categories":[{"id":"4bf58dd8d48988d1df931735","name":"BBQ Joint","pluralName":"BBQ Joints","shortName":"BBQ","icon":{"prefix":"https://ss3.4sqi.net/img/categories_v2/food/bbqalt_","suffix":".png"},"primary":true}],"verified":false,"stats":{"checkinsCount":53,"usersCount":46,"tipCount":0},"allowMenuUrlEdit":true,"beenHere":{"lastCheckinExpiredAt":0},"specials":{"count":0,"items":[]},"referralId":"v-1512736578","venueChains":[],"hasPerk":false}]
}



